[
  {
    "icao": "VVBM",
    "iata": "BMV",
    "name": "Sân bay Buôn Ma Thuột",
    "city": "Buôn Ma Thuột",
    "region": "Đắk Lắk",
    "country": "VN",
    "elevation_ft": "1729",
    "latitude": "12.668299675",
    "longitude": "108.120002747",
    "timezone": "Asia/Ho_Chi_Minh"
  },
  {
    "icao": "VVCA",
    "iata": "VCL",
    "name": "Sân bay Quốc tế Chu Lai",
    "city": "Tam Kỳ",
    "region": "Quảng Nam",
    "country": "VN",
    "elevation_ft": "10",
    "latitude": "15.4033002853",
    "longitude": "108.706001282",
    "timezone": "Asia/Ho_Chi_Minh"
  },
  {
    "icao": "VVCI",
    "iata": "HPH",
    "name": "Sân bay Quốc tế Cát Bi",
    "city": "Hải Phòng",
    "region": "Hải Phòng",
    "country": "VN",
    "elevation_ft": "6",
    "latitude": "20.8194007874",
    "longitude": "106.7249984741",
    "timezone": "Asia/Ho_Chi_Minh"
  },
  {
    "icao": "VVCM",
    "iata": "CAH",
    "name": "Sân bay Cà Mau",
    "city": "Cà Mau",
    "region": "Cà Mau",
    "country": "VN",
    "elevation_ft": "6",
    "latitude": "9.1776666667",
    "longitude": "105.177777778",
    "timezone": "Asia/Ho_Chi_Minh"
  },
  {
    "icao": "VVCR",
    "iata": "CXR",
    "name": "Sân bay Cam Ranh",
    "city": "Nha Trang",
    "region": "Khánh Hòa",
    "country": "VN",
    "elevation_ft": "40",
    "latitude": "11.9982004166",
    "longitude": "109.21900177",
    "timezone": "Asia/Ho_Chi_Minh"
  },
  {
    "icao": "VVDB",
    "iata": "DIN",
    "name": "Sân bay Điện Biên Phủ",
    "city": "Điện Biên Phủ",
    "region": "Lai Châu",
    "country": "VN",
    "elevation_ft": "1611",
    "latitude": "21.3974990845",
    "longitude": "103.008003235",
    "timezone": "Asia/Ho_Chi_Minh"
  },
  {
    "icao": "VVDH",
    "iata": "VDH",
    "name": "Sân bay Đồng Hới",
    "city": "Đồng Hới",
    "region": "Quảng Bình",
    "country": "VN",
    "elevation_ft": "59",
    "latitude": "17.515",
    "longitude": "106.590556",
    "timezone": "Asia/Ho_Chi_Minh"
  },
  {
    "icao": "VVDL",
    "iata": "DLI",
    "name": "Sân bay Liên Khương",
    "city": "Đà Lạt",
    "region": "Lâm Đồng",
    "country": "VN",
    "elevation_ft": "3156",
    "latitude": "11.75",
    "longitude": "108.3669967651",
    "timezone": "Asia/Ho_Chi_Minh"
  },
  {
    "icao": "VVDN",
    "iata": "DAD",
    "name": "Sân bay Quốc tế Đà Nẵng",
    "city": "Đà Nẵng",
    "region": "Đà Nẵng",
    "country": "VN",
    "elevation_ft": "33",
    "latitude": "16.0438995361",
    "longitude": "108.1989974976",
    "timezone": "Asia/Ho_Chi_Minh"
  },
  {
    "icao": "VVNB",
    "iata": "HAN",
    "name": "Sân bay Quốc tế Nội Bài",
    "city": "Hà Nội",
    "region": "Hà Nội",
    "country": "VN",
    "elevation_ft": "39",
    "latitude": "21.221200943",
    "longitude": "105.8069992065",
    "timezone": "Asia/Ho_Chi_Minh"
  },
  {
    "icao": "VVPB",
    "iata": "HUI",
    "name": "Sân bay Phú Bài",
    "city": "Huế",
    "region": "Thừa Thiên Huế",
    "country": "VN",
    "elevation_ft": "48",
    "latitude": "16.4015007019",
    "longitude": "107.70300293",
    "timezone": "Asia/Ho_Chi_Minh"
  },
  {
    "icao": "VVPC",
    "iata": "UIH",
    "name": "Sân bay Phú Cát",
    "city": "Quy Nhơn",
    "region": "Khánh Hòa",
    "country": "VN",
    "elevation_ft": "80",
    "latitude": "13.9549999237",
    "longitude": "109.041999817",
    "timezone": "Asia/Ho_Chi_Minh"
  },
  {
    "icao": "VVPK",
    "iata": "PXU",
    "name": "Sân bay Pleiku",
    "city": "Pleiku",
    "region": "Gia Lai",
    "country": "VN",
    "elevation_ft": "2434",
    "latitude": "14.0045003891",
    "longitude": "108.016998291",
    "timezone": "Asia/Ho_Chi_Minh"
  },
  {
    "icao": "VVPQ",
    "iata": "PQC",
    "name": "Sân bay Phú Quốc",
    "city": "Dương Đông",
    "region": "Bình Thuận",
    "country": "VN",
    "elevation_ft": "23",
    "latitude": "10.2270002365",
    "longitude": "103.967002869",
    "timezone": "Asia/Ho_Chi_Minh"
  },
  {
    "icao": "VVRG",
    "iata": "VKG",
    "name": "Sân bay Rạch Giá",
    "city": "Rạch Giá",
    "region": "Bình Thuận",
    "country": "VN",
    "elevation_ft": "7",
    "latitude": "9.9580299723",
    "longitude": "105.132379532",
    "timezone": "Asia/Ho_Chi_Minh"
  },
  {
    "icao": "VVTS",
    "iata": "SGN",
    "name": "Sân bay Quốc tế Tân Sơn Nhất",
    "city": "Thành phố Hồ Chí Minh",
    "region": "Thành phố Hồ Chí Minh",
    "country": "VN",
    "elevation_ft": "33",
    "latitude": "10.8187999725",
    "longitude": "106.652000427",
    "timezone": "Asia/Ho_Chi_Minh"
  },
  {
    "icao": "VVTX",
    "iata": "THD",
    "name": "Sân bay Thọ Xuân",
    "city": "Thanh Hóa",
    "region": "Thanh Hóa",
    "country": "VN",
    "elevation_ft": "59",
    "latitude": "19.901667",
    "longitude": "105.467778",
    "timezone": "Asia/Ho_Chi_Minh"
  },
  {
    "icao": "VVVD",
    "iata": "VDO",
    "name": "Sân bay Quốc tế Vân Đồn",
    "city": "Vân Đồn",
    "region": "Quảng Ninh",
    "country": "VN",
    "elevation_ft": "26",
    "latitude": "21.118",
    "longitude": "107.414167",
    "timezone": "Asia/Ho_Chi_Minh"
  },
  {
    "icao": "VVVH",
    "iata": "VII",
    "name": "Sân bay Vinh",
    "city": "Vinh",
    "region": "Nghệ-An",
    "country": "VN",
    "elevation_ft": "23",
    "latitude": "18.7376003265",
    "longitude": "105.67099762",
    "timezone": "Asia/Ho_Chi_Minh"
  },
  {
    "icao": "VVVT",
    "iata": "VTG",
    "name": "Sân bay Vũng Tàu",
    "city": "Vũng Tàu",
    "region": "Bà Rịa - Vũng Tàu",
    "country": "VN",
    "elevation_ft": "13",
    "latitude": "10.3725004196",
    "longitude": "107.0950012207",
    "timezone": "Asia/Ho_Chi_Minh"
  }
]